[{"name": "Chihuly Garden and Glass", "location": {"lat": 47.6205599, "lng": -122.3504476}}, {"name": "Space Needle", "location": {"lat": 47.6205063, "lng": -122.3492774}}, {"name": "Beneath the Streets", "location": {"lat": 47.6028497, "lng": -122.3340931}}, {"name": "Olympic Sculpture Park", "location": {"lat": 47.6166028, "lng": -122.3553167}}, {"name": "Museum of Pop Culture", "location": {"lat": 47.6214824, "lng": -122.3481245}}, {"name": "Smith Tower", "location": {"lat": 47.6018528, "lng": -122.3318583}}, {"name": "Klondike Gold Rush National Historical Park", "location": {"lat": 47.5992993, "lng": -122.3317676}}, {"name": "Fremont Troll", "location": {"lat": 47.6510628, "lng": -122.3474988}}, {"name": "The Gum Wall", "location": {"lat": 47.6083607, "lng": -122.3403382}}, {"name": "The Museum of Flight", "location": {"lat": 47.5185379, "lng": -122.2968545}}, {"name": "Kerry Park", "location": {"lat": 47.6294692, "lng": -122.3599224}}, {"name": "Pacific Science Center", "location": {"lat": 47.6200121, "lng": -122.3515528}}, {"name": "International Fountain", "location": {"lat": 47.6225227, "lng": -122.3520323}}, {"name": "Pier 55", "location": {"lat": 47.604747, "lng": -122.339716}}, {"name": "Seattle Center", "location": {"lat": 47.6205976, "lng": -122.3505055}}, {"name": "Zoomazium", "location": {"lat": 47.6679325, "lng": -122.3532008}}, {"name": "Pike Place Market", "location": {"lat": 47.6094076, "lng": -122.3418358}}, {"name": "Union Station Square", "location": {"lat": 47.5993924, "lng": -122.330103}}, {"name": "City Map Hatchcover", "location": {"lat": 47.60129060000001, "lng": -122.3344329}}, {"name": "Green Lake Park", "location": {"lat": 47.6802143, "lng": -122.3284022}}]